City_ID,City,Country,Max Temp,Current Description,Lat,Lng,Hotel Name
2,Hualmay,PE,74.3,overcast clouds,-11.0964,-77.6139,Hotel Villa Kitzia Huacho
6,Hobart,AU,70.05,clear sky,-42.8794,147.3294,St Ives Hobart Accommodation Tasmania
10,Butaritari,KI,81.61,broken clouds,3.0707,172.7902,Isles Sunset Lodge
13,Lorengau,PG,81.0,heavy intensity rain,-2.0226,147.2712,Lorengau Harbourside Hotel
15,Bengkulu,ID,75.97,overcast clouds,-3.8004,102.2655,Grage Hotel Bengkulu
18,Kapaa,US,73.72,light rain,22.0752,-159.319,Sheraton Kauai Coconut Beach Resort
20,Male,MV,80.55,broken clouds,4.1748,73.5089,Hotel Octave Maldives
23,Namibe,AO,73.76,broken clouds,-15.1961,12.1522,Hotel Chik Chik Namibe
30,Georgetown,MY,78.73,few clouds,5.4112,100.3354,Cititel Penang
36,Manadhoo,MV,80.89,few clouds,5.7667,73.3833,Bon Abri maldives
37,Bilma,NE,78.22,overcast clouds,18.6853,12.9164,Expeditions Ténére voyages
40,Rikitea,PF,79.93,light rain,-23.1203,-134.9692,People ThankYou
43,Manaure,CO,82.51,overcast clouds,11.7751,-72.4445,Hotel Palaaima
44,Guane,CU,79.02,scattered clouds,22.2025,-84.0875,base de Campismo LosPortales de Guane
46,Hilo,US,80.33,clear sky,19.7297,-155.09,Hilo Hawaiian Hotel
47,Gizo,SB,82.44,overcast clouds,-8.103,156.8419,Imagination Island
49,Kavieng,PG,81.12,light rain,-2.5744,150.7967,Nusa Island Retreat
51,Atuona,PF,78.46,light rain,-9.8,-139.0333,Villa Enata
55,Puerto Ayora,EC,80.56,overcast clouds,-0.7393,-90.3518,Finch Bay Galapagos Hotel
56,Sibolga,ID,75.31,overcast clouds,1.7427,98.7792,Hotel Syariah CN Darussalam
59,Harper,LR,80.01,broken clouds,4.375,-7.7169,Screensaver
60,Bathsheba,BB,79.41,few clouds,13.2167,-59.5167,Atlantis Hotel
62,Dembi Dolo,ET,70.74,broken clouds,8.5333,34.8,Dembi dollo plaza
66,Kloulklubed,PW,77.5,overcast clouds,7.0419,134.2556,Storyboard Beach Resort
70,Isangel,VU,84.31,few clouds,-19.55,169.2667,Tanna Lodge
74,San Rafael,AR,78.64,clear sky,-34.6177,-68.3301,Hotel San Rafael
75,Nampicuan,PH,74.26,scattered clouds,15.7314,120.625,La Romana Countryside Haven
78,Lazaro Cardenas,MX,81.95,clear sky,17.9583,-102.2,quinta antigua
79,Vaini,TO,82.56,broken clouds,-21.2,-175.2,Keleti Beach Resort
82,Santa Maria,BR,83.5,clear sky,-29.6842,-53.8069,Hotel Morotin
85,Sao Filipe,CV,72.63,clear sky,14.8961,-24.4956,Hotel Xaguate
92,Dingle,PH,76.26,overcast clouds,10.9995,122.6711,SEGAYA PROPERTY
98,Madarounfa,NE,82.54,overcast clouds,13.3087,7.156,Madarounfa centre ville
100,Toowoomba,AU,72.25,broken clouds,-27.55,151.9667,Toowoomba Central Plaza Apartment Hotel
106,Angicos,BR,82.0,light rain,-5.6656,-36.6011,Pousada Vovó Haidê
107,Hithadhoo,MV,82.04,broken clouds,-0.6,73.0833,Scoop Guest House
108,Yulara,AU,76.84,overcast clouds,-25.2406,130.9889,Desert Gardens Hotel - Ayers Rock Resort
111,Porto Novo,BJ,82.22,moderate rain,6.4965,2.6036,Tour Eiffel Hotel Benin
113,San Patricio,US,81.28,scattered clouds,28.017,-97.5169,"Motel 6 Sinton, TX"
115,Port Shepstone,ZA,73.94,light rain,-30.7414,30.455,My Den Beachfront Bed and Breakfast | Self-Catering
118,Eseka,CM,72.14,broken clouds,3.65,10.7667,Complexe Hotelier Ndjiki Mpeck Eseka II
121,Kiunga,PG,74.77,light rain,-6.1219,141.2906,Airport Lodge Kiunga
122,Marsh Harbour,BS,73.87,clear sky,26.5412,-77.0636,Abaco Beach Resort
127,Tres Lagoas,BR,77.94,overcast clouds,-20.7511,-51.6783,Druds Express Hotel
129,Chuy,UY,72.3,broken clouds,-33.6971,-53.4616,Nuevo Hotel Plaza
134,Trairi,BR,79.81,overcast clouds,-3.2778,-39.2689,janelas do mar
137,Diffa,NE,81.41,broken clouds,13.3154,12.6113,ProDAF/Diffa
140,Chicama,PE,72.14,broken clouds,-7.8447,-79.1469,Balihai Bungalows
144,Davidson,US,78.91,clear sky,36.1501,-86.7833,Best Western Plus Music Row
147,Arraial Do Cabo,BR,75.16,scattered clouds,-22.9661,-42.0278,Pousada Porto Praia
148,Bandarbeyla,SO,75.51,scattered clouds,9.4942,50.8122,JABIR HOTEL
151,Saint-Philippe,RE,78.39,light rain,-21.3585,55.7679,"Chambres d'hôte ""La Trinité"""
152,Port-Gentil,GA,75.16,mist,-0.7193,8.7815,Fengshui Residence
154,Cap Malheureux,MU,79.29,overcast clouds,-19.9842,57.6142,Pereybere Hotel & Spa
156,Saint-Joseph,RE,77.38,light rain,-21.3667,55.6167,"""Plantation Bed and Breakfast"
162,Kuching,MY,75.42,light rain,1.55,110.3333,Hilton Kuching
167,Souillac,MU,79.18,broken clouds,-20.5167,57.5167,Shanti Maurice Resort & Spa
169,Avarua,CK,82.45,overcast clouds,-21.2078,-159.775,Paradise Inn
173,Upata,VE,75.2,overcast clouds,8.0086,-62.3989,Posada Villa Nela
174,Vao,NC,78.98,scattered clouds,-22.6667,167.4833,Hotel Kou-Bugny
177,Cockburn Town,TC,78.21,clear sky,21.4612,-71.1419,Osprey Beach Hotel
178,Beira,MZ,76.03,clear sky,-19.8436,34.8389,Beira Terrace Hotel
179,Faanui,PF,81.77,few clouds,-16.4833,-151.75,Bora-Bora Pearl Beach Resort & Spa
183,Ilhabela,BR,77.52,overcast clouds,-23.7781,-45.3581,Ilha Flat Hotel
188,Acapulco,MX,82.22,broken clouds,16.8634,-99.8901,HS Hotsson Smart Acapulco
189,Itarema,BR,80.49,overcast clouds,-2.9248,-39.9167,"Sea Lounge! Bar, Club & Restaurant"
190,Rincon,US,73.85,overcast clouds,32.296,-81.2354,Days Inn Rincon
194,Akyab,MM,71.92,scattered clouds,20.15,92.9,Hotel Memory
196,Kilindoni,TZ,80.64,overcast clouds,-7.9139,39.6668,Bustani B&B
199,Mabaruma,GY,73.6,overcast clouds,8.2,-59.7833,Monty Brooms Guest House
201,Kalianget,ID,80.73,overcast clouds,-7.05,113.9333,Pesanggrahan Garam
202,Saint-Pierre,RE,78.48,clear sky,-21.3393,55.4781,Lindsey Hôtel
205,Labuhan,ID,77.43,overcast clouds,-6.8844,112.2051,DoubleFAG
207,Singaraja,ID,76.96,overcast clouds,-8.112,115.0882,Puri Bagus Lovina Resort
211,Cidreira,BR,77.23,clear sky,-30.1811,-50.2056,Hotel Castelo
215,Maxixe,MZ,73.65,clear sky,-23.8597,35.3472,Oceano
217,Cape Town,ZA,70.21,clear sky,-33.9258,18.4232,"Radisson Blu Hotel Waterfront, Cape Town"
224,Sidney,AU,74.61,light rain,-33.8679,151.2073,The Grace Sydney
232,Port Blair,IN,79.07,few clouds,11.6667,92.75,"Welcomhotel By ITC Hotels, Bay Island, Port Blair"
233,Ternate,ID,80.85,overcast clouds,0.8,127.4,Sahid Bela Ternate Hotel
234,Wamba,NG,80.37,overcast clouds,8.9333,8.6,Roma Zee Guest House Annex
235,Salalah,OM,73.49,clear sky,17.0151,54.0924,"HAMDAN PLAZA HOTEL SALALAH, an HTG Hotel"
236,Florianopolis,BR,79.38,broken clouds,-27.6146,-48.5012,Hotel Boutique Quinta das Videiras
237,Jardim,BR,79.83,broken clouds,-21.4803,-56.1381,Estancia Hotel - Jardim MS
242,Etchoropo,MX,78.35,clear sky,26.7667,-109.6667,Campo de Andrés cruz jusaino
244,Santa Rita,BR,83.07,broken clouds,-7.1139,-34.9781,Infinity Motel
245,Mazamari,PE,73.67,overcast clouds,-11.3258,-74.5308,Hospedaje Ratto
249,Meulaboh,ID,75.76,broken clouds,4.1363,96.1285,Kost Pria
251,Eldorado,BR,79.09,moderate rain,-23.7869,-54.2836,Villa Verde Hotel
260,Bubaque,GW,77.07,overcast clouds,11.2833,-15.8333,"Casa Dora, Bubaque"
261,Hervey Bay,AU,76.03,broken clouds,-25.2986,152.8535,Shelly Bay Resort
262,Bambous Virieux,MU,79.05,broken clouds,-20.3428,57.7575,Casa Tia Villa
263,Caravelas,BR,78.26,clear sky,-17.7125,-39.2481,Pousada dos Navegantes
265,Kahului,US,83.46,scattered clouds,20.8947,-156.47,Maui Seaside Hotel
267,Vila Velha,BR,82.35,scattered clouds,-20.3297,-40.2925,Hotel Vitória Palace
279,Maceio,BR,72.84,moderate rain,-9.6658,-35.7353,Hotel Ponta Verde Maceió
281,Alofi,NU,82.29,overcast clouds,-19.0595,-169.9187,Taloa Heights
283,Ovalle,CL,77.83,clear sky,-30.5983,-71.2003,Hotel Altos de Tuqui
292,Cabinda,AO,79.52,overcast clouds,-5.55,12.2,Hotel Maiombe
293,San Antonio,US,83.95,broken clouds,29.4241,-98.4936,Drury Plaza Hotel San Antonio Riverwalk
297,Mahebourg,MU,79.09,broken clouds,-20.4081,57.7,Shandrani Beachcomber Resort & Spa
298,Magelang,ID,75.74,overcast clouds,-7.4706,110.2178,Atria Hotel Magelang
300,Axim,GH,79.95,broken clouds,4.8699,-2.2405,Axim Beach Resort And Spa
304,Antofagasta,CL,70.88,clear sky,-23.65,-70.4,"Holiday Inn Express Antofagasta, an IHG Hotel"
307,San Policarpo,PH,79.81,broken clouds,12.1791,125.5072,Agapita M. Nicart
311,Quelimane,MZ,78.75,few clouds,-17.8786,36.8883,Hotel Flamingo
315,Paramirim,BR,73.92,heavy intensity rain,-13.4425,-42.2389,Pousada Rio Pequeno
322,Flinders,AU,75.06,overcast clouds,-34.5833,150.8552,Shellharbour Resort & Conference Centre
323,Poptun,GT,70.84,overcast clouds,16.3311,-89.4169,Hotel Sevilla
325,Japura,ID,73.24,broken clouds,-0.3167,102.35,Rumah mbah Jamah
330,East London,ZA,70.12,overcast clouds,-33.0153,27.9116,Tu Casa
331,Piacabucu,BR,79.75,light rain,-10.4056,-36.4344,Piaçabuçu News
335,Banamba,ML,76.57,overcast clouds,13.55,-7.45,Kassela de Banamba
342,Olinda,BR,78.53,light intensity shower rain,-8.0089,-34.8553,Flat Quatro Rodas Olinda
344,Anori,BR,75.29,heavy intensity rain,-3.7728,-61.6442,Novo Hotel 5 Irmãos
345,Sao Felix Do Xingu,BR,75.49,overcast clouds,-6.6447,-51.995,Rio Xingu Camping
346,Sola,VU,81.99,scattered clouds,-13.8833,167.55,Leumerus Bungalows
349,Huntsville,US,80.13,clear sky,34.7304,-86.5861,Embassy Suites by Hilton Huntsville Hotel & Spa
352,Truth Or Consequences,US,73.63,clear sky,33.1284,-107.2528,Charles Motel
353,Port Moresby,PG,78.22,scattered clouds,-9.4431,147.1797,Lamana Hotel (Port Moresby)
357,Puerto Baquerizo Moreno,EC,79.79,broken clouds,-0.9,-89.6,Hotel los Algarrobos
360,Sur,OM,73.33,scattered clouds,22.5667,59.5289,Sur Plaza Hotel
361,Matara,LK,75.54,light rain,5.9485,80.5353,Amaloh Boutique Resort
363,Buctzotz,MX,81.93,broken clouds,21.2,-88.7833,Buctoztz
365,Carauari,BR,75.27,overcast clouds,-4.8828,-66.8958,Hotel Fellip
366,Calamar,CO,84.15,scattered clouds,10.2511,-74.9146,Hostal Katyalex
367,Ibimirim,BR,76.32,light rain,-8.5406,-37.6903,Hotel Paulistão
369,Puerto Cabezas,NI,84.16,broken clouds,14.0351,-83.3888,Cabaña Caribe
376,Zorritos,PE,82.69,light rain,-3.6805,-80.6782,Hotel Pinamar
378,Lincoln,US,72.9,clear sky,40.8,-96.667,Courtyard by Marriott Lincoln Downtown/Haymarket
380,Biak,ID,76.87,moderate rain,-0.9131,122.8766,Penginapan Kim
381,Pemangkat,ID,75.56,overcast clouds,1.1667,108.9667,Ramah Kost KITA
382,Mattru,SL,76.8,few clouds,7.6244,-11.8332,"Mondkor Town, Bagbo Chiefdom, Bo District"
383,General Roca,AR,77.63,broken clouds,-39.0333,-67.5833,Hotel El Recreo
389,Ahuimanu,US,80.78,few clouds,21.4447,-157.8378,Paradise Bay Resort
391,Christchurch,NZ,72.03,broken clouds,-43.5333,172.6333,The George
392,Rio Grande,BR,78.94,light rain,-32.035,-52.0986,Hotel Atlântico Rio Grande
393,Pisco,PE,78.85,clear sky,-13.7,-76.2167,Hotel San Isidro Oficial
398,Camopi,GF,72.39,light rain,3.1655,-52.3158,La pousada
401,Sydney,AU,74.34,light rain,-33.8679,151.2073,The Grace Sydney
402,Kununurra,AU,78.78,few clouds,-15.7667,128.7333,Hotel Kununurra
404,Macae,BR,76.75,few clouds,-22.3708,-41.7869,Golden Tulip Macaé
407,Ilo,PE,72.99,scattered clouds,-17.6394,-71.3375,Torreblanca Hotel
409,Chabahar,IR,73.6,overcast clouds,25.2919,60.643,هتل گدروشیا
410,Phan Thiet,VN,73.49,scattered clouds,10.9333,108.1,Hotel Saigon-PT
411,Cabedelo,BR,83.07,broken clouds,-6.9811,-34.8339,Hotel Pigalle
413,Ferkessedougou,CI,84.63,broken clouds,9.6,-5.2,Hotel Chateau
415,Kongolo,CD,70.61,overcast clouds,-5.3833,27.0,GUEST HOUSE OASIS
419,Gunjur,GM,73.47,clear sky,13.2019,-16.7339,Dalaba Eco-Lodge Gambia
420,Road Town,VG,78.89,few clouds,18.4167,-64.6167,"ZINGARA 76ft Catamaran, full crew-all included"
423,Porto Walter,BR,79.59,overcast clouds,-8.2686,-72.7439,Secretaria de saúde
424,Dumabato,PH,70.14,broken clouds,16.3167,121.7,JBT MOUNTAIN VIEW RECREATIONAL PLACE
428,Itupiranga,BR,74.88,heavy intensity rain,-5.1347,-49.3267,Hotel Panorama
429,Touros,BR,83.3,broken clouds,-5.1989,-35.4608,INN NEW HORIZON
432,Berbera,SO,74.3,broken clouds,10.4396,45.0143,IBCO REAL ESTATE PROPERTY
434,Yeppoon,AU,82.18,clear sky,-23.1333,150.7333,Villa Mar Colina
437,The Valley,AI,78.94,broken clouds,18.217,-63.0578,CeBlue Villas & Beach Resort
440,Miragoane,HT,78.94,clear sky,18.4423,-73.0876,MMM K-TICHON
441,Manono,CD,70.3,light rain,-7.3,27.4167,Hotel hewa bora
443,Mareeba,AU,84.49,overcast clouds,-17.0,145.4333,Trinity Plains Tourist Park
445,Eydhafushi,MV,80.82,clear sky,5.1033,73.0708,Soneva Fushi
451,West Bay,KY,83.07,few clouds,19.3667,-81.4167,Calypso Cove
452,Banjar,ID,76.91,overcast clouds,-8.19,114.9675,The Hamsa Resort
454,Kieta,PG,83.84,light rain,-6.2167,155.6333,Uruna Bay Retreat
459,Hambantota,LK,76.82,overcast clouds,6.1241,81.1185,Bungalow 63
461,Dargaville,NZ,74.3,overcast clouds,-35.9333,173.8833,Parkview Motel
465,Daru,PG,81.05,overcast clouds,-9.0763,143.2092,Daru Lodge
467,Sawakin,SD,73.81,overcast clouds,19.1059,37.3321,فندق الدويم
468,Richards Bay,ZA,70.43,clear sky,-28.783,32.0377,BON Hotel Waterfront Richards Bay
469,Dzilam Gonzalez,MX,80.98,scattered clouds,21.2833,-88.9333,posadas
472,Ampanihy,MG,73.74,few clouds,-24.7,44.75,Angora Hotel
473,Iracoubo,GF,76.37,overcast clouds,5.4802,-53.2011,Le Gîte d’Iracoubo
475,Port Hedland,AU,77.05,clear sky,-20.3167,118.5667,"The Esplanade Hotel (Accommodation section closed for refurbishment - Bar, Restaurant & Functions remain open)"
477,Maragogi,BR,78.98,moderate rain,-9.0122,-35.2225,Salinas do Maragogi All Inclusive Resort
479,Tabou,CI,79.63,scattered clouds,4.423,-7.3528,hotêl doufoulougou
485,Cootamundra,AU,71.94,overcast clouds,-34.65,148.0333,Cootamundra Gardens Motel & indian restaurant
493,Conde,BR,81.86,broken clouds,-7.2597,-34.9075,Pousada Beija Flor
495,Anloga,GH,84.42,light rain,5.7947,0.8973,Pin Drop Hotel
501,Sulya,IN,73.44,broken clouds,12.5667,75.3833,RIVER ISLAND LODGING
502,Boone,US,73.06,overcast clouds,39.0334,-92.3335,Cottonwoods RV Park
511,Pak Phanang,TH,77.11,scattered clouds,8.3511,100.202,Green Park Inn Hotel
514,Tamandare,BR,79.03,light rain,-8.7597,-35.1047,Pousada 100 Passos
516,Umarkot,PK,70.74,clear sky,25.3616,69.7362,Al-Qamar Boys Hostel
519,Coahuayana,MX,83.39,clear sky,18.7333,-103.6833,El rranchito michuacan de ocampos
520,Dwarka,IN,73.63,clear sky,22.2394,68.9678,Hotel Narayan Avezika Comfort
521,Kavaratti,IN,82.87,broken clouds,10.5669,72.642,Hotels in Lakshadweep Islands
522,Mahibadhoo,MV,81.05,clear sky,3.7833,72.9667,Omadhoo Inn
523,Payo,ID,73.06,moderate rain,-3.7508,103.6372,Mess keban agung
529,Domoni,KM,78.37,light rain,-12.2569,44.5319,Al Djadid
530,Bonthe,SL,77.68,few clouds,7.5264,-12.505,Bonthe Holiday Village
540,Vallenar,CL,76.57,clear sky,-28.5708,-70.7581,Humacao Bed & Breakfast
543,Ewa Beach,US,81.01,overcast clouds,21.3156,-158.0072,Base Lodging
544,Santa Rosa,PH,79.02,broken clouds,14.3122,121.1114,Erlyn’s Sta Rosa City Home
548,Kaeo,NZ,72.32,broken clouds,-35.1,173.7833,Bushido Lodge
550,Bitung,ID,74.25,overcast clouds,1.4451,125.1824,K2 Lembeh
553,Boffa,GN,77.5,overcast clouds,10.1667,-14.0333,Hôtel Niara Belly
554,San Luis,AR,76.03,broken clouds,-33.295,-66.3356,Huarpes Hotel
562,Springdale,US,71.42,clear sky,36.1867,-94.1288,Springdale Inn
566,Ruwi,OM,76.69,overcast clouds,23.5996,58.5507,Al Falaj Hotel
567,Wad Madani,SD,82.81,few clouds,14.4012,33.5199,فندق يوغسلافيا
571,Waingapu,ID,79.41,overcast clouds,-9.6567,120.2641,Pondok Wisata Elim
592,Kassala,SD,75.61,overcast clouds,15.451,36.4,Amassi Hotel Gash
599,Neuquen,AR,75.09,clear sky,-38.9516,-68.0591,Hotel del Comahue
601,Mulege,MX,75.04,clear sky,26.8833,-111.9833,Casa Granada
607,Saint-Georges,GD,78.48,scattered clouds,12.0564,-61.7485,Radisson Grenada Beach Resort
610,Jati,PK,72.27,clear sky,24.3539,68.2671,Cafe Lala Rehan Restaurant
612,Sakaraha,MG,72.91,clear sky,-22.9,44.5333,Le Relais
614,Abu Dhabi,AE,71.71,clear sky,24.4667,54.3667,Beach Rotana
623,Mangrol,IN,72.79,clear sky,21.1167,70.1167,Hotel The Royal Honours
624,Bentiu,SS,82.85,clear sky,9.2333,29.8333,Mandela hôtel
631,Cayenne,GF,79.09,light rain,4.9333,-52.3333,Hôtel Le Dronmi
636,Padang,ID,75.25,broken clouds,-0.9492,100.3543,Mercure Padang
637,Sechura,PE,77.38,overcast clouds,-5.5569,-80.8222,Hospedaje Costa Bella
640,Naifaru,MV,80.87,few clouds,5.4444,73.3657,Naifaru Residence Guest House
643,Mahajanga,MG,77.02,scattered clouds,-15.7167,46.3167,Restaurant Greedy Coco Lodge Majunga
645,Rocha,UY,72.99,broken clouds,-34.4833,-54.3333,Hotel Arrarte
652,Paita,PE,82.96,overcast clouds,-5.0892,-81.1144,Hotel Náutico de Paita
653,Elesbao Veloso,BR,77.63,light rain,-6.2019,-42.1403,Pousada Paraiso
656,Kalmunai,LK,74.93,overcast clouds,7.4167,81.8167,VS Villa
658,Alice Springs,AU,76.55,clear sky,-23.7,133.8833,Desert Palms Alice Springs
661,Loanda,AO,82.4,scattered clouds,-8.8368,13.2343,EPIC SANA Luanda
663,Srandakan,ID,73.45,overcast clouds,-7.9386,110.2506,Puri Brata
668,Kualakapuas,ID,75.36,light rain,-3.0091,114.3876,Guest House Izonk
672,Rio Sereno,PA,80.38,overcast clouds,8.8167,-82.8667,Agua Luna Ecolodge
673,Tarauaca,BR,77.54,overcast clouds,-8.1614,-70.7656,Flat Temporada
679,Kismayo,SO,77.5,few clouds,-0.3582,42.5454,Agan-Hotel
681,Altagracia De Orituco,VE,76.14,broken clouds,9.8601,-66.3814,Posada Quinta Mi Refugio
682,Namatanai,PG,79.72,overcast clouds,-3.6667,152.4333,Seagulls Inn Namatani
683,Tema,GH,81.01,light rain,5.667,-0.0166,Beulah Royale Hotel Tema
